{"type": "FeatureCollection", "features": [{"type": "Feature", "properties": {"name": "Berlin"}, "geometry": {"type": "Point", "coordinates": [13.405, 52.52]}}, {"type": "Feature", "properties": {"name": "Hamburg"}, "geometry": {"type": "Point", "coordinates": [9.9937, 53.5511]}}, {"type": "Feature", "properties": {"name": "Munich"}, "geometry": {"type": "Point", "coordinates": [11.582, 48.1351]}}, {"type": "Feature", "properties": {"name": "Cologne"}, "geometry": {"type": "Point", "coordinates": [6.9603, 50.9375]}}, {"type": "Feature", "properties": {"name": "Frankfurt"}, "geometry": {"type": "Point", "coordinates": [8.6821, 50.1109]}}, {"type": "Feature", "properties": {"name": "Stuttgart"}, "geometry": {"type": "Point", "coordinates": [9.1829, 48.7758]}}, {"type": "Feature", "properties": {"name": "D\u00fcsseldorf"}, "geometry": {"type": "Point", "coordinates": [6.7735, 51.2277]}}, {"type": "Feature", "properties": {"name": "Dortmund"}, "geometry": {"type": "Point", "coordinates": [7.4689, 51.5139]}}, {"type": "Feature", "properties": {"name": "Essen"}, "geometry": {"type": "Point", "coordinates": [7.0123, 51.4556]}}, {"type": "Feature", "properties": {"name": "Leipzig"}, "geometry": {"type": "Point", "coordinates": [12.3731, 51.3397]}}]}